Time,Distance_m,Alt_m,Err_Fwd_m,Err_Right_m,PWM_Roll,PWM_Pitch,PWM_Throttle,PWM_Yaw
0.0,1245.64,0.0,-841.36,-918.55,1050,1950,1950,1500
0.1,1245.64,0.0,-841.36,-918.55,1050,1950,1950,1500
0.2,1245.64,0.0,-841.36,-918.55,1050,1950,1950,1500
0.3,1245.64,0.0,-841.36,-918.55,1050,1950,1950,1500
0.4,1245.64,0.0,-841.36,-918.55,1050,1950,1950,1500
0.5,1245.64,0.0,-841.36,-918.55,1050,1950,1950,1500
0.6,1245.64,0.0,-841.36,-918.55,1050,1950,1950,1500
0.7,1245.64,0.0,-841.36,-918.55,1050,1950,1950,1500
0.8,1245.64,0.0,-841.36,-918.55,1050,1950,1950,1500
0.9,1245.64,0.0,-841.36,-918.55,1050,1950,1950,1500
1.0,1245.64,0.0,-841.36,-918.55,1050,1950,1950,1500
1.1,1245.64,0.0,-841.36,-918.55,1050,1950,1950,1500
1.2,1245.64,0.0,-841.36,-918.55,1050,1950,1950,1500
1.3,1245.64,0.0,-841.36,-918.55,1050,1950,1950,1500
1.4,1245.64,0.0,-841.36,-918.55,1050,1950,1950,1500
1.5,1245.64,0.0,-841.36,-918.55,1050,1950,1950,1500
1.6,1245.64,0.0,-841.36,-918.55,1050,1950,1950,1500
1.7,1245.64,0.0,-841.36,-918.55,1050,1950,1950,1500
1.8,1245.64,0.0,-841.36,-918.55,1050,1950,1950,1500
1.9,1245.64,0.0,-841.36,-918.55,1050,1950,1950,1500
2.0,1245.64,0.0,-841.36,-918.55,1050,1950,1950,1500
2.1,1245.64,0.0,-841.36,-918.55,1050,1950,1950,1500
2.2,1245.64,0.0,-841.36,-918.55,1050,1950,1950,1500
2.3,1245.64,0.0,-841.36,-918.55,1050,1950,1950,1500
2.4,1245.64,0.0,-841.36,-918.55,1050,1950,1950,1500
2.5,1245.64,0.15,-841.36,-918.54,1050,1950,1950,1500
2.6,1245.64,0.15,-841.36,-918.54,1050,1950,1950,1500
2.7,1245.64,0.15,-841.36,-918.54,1050,1950,1950,1500
2.8,1245.43,1.0,-841.22,-918.39,1050,1950,1950,1500
2.9,1245.43,1.0,-841.22,-918.39,1050,1950,1950,1500
3.0,1244.58,2.53,-824.49,-932.31,1050,1950,1950,1500
3.1,1244.58,2.53,-824.49,-932.31,1050,1950,1950,1500
3.2,1244.58,2.53,-824.49,-932.31,1050,1950,1950,1500
3.3,1243.1,4.41,-790.46,-959.42,1050,1950,1950,1500
3.4,1243.1,4.41,-790.46,-959.42,1050,1950,1950,1500
3.5,1241.12,6.5,-822.07,-929.82,1050,1950,1950,1500
3.6,1241.12,6.5,-822.07,-929.82,1050,1950,1950,1500
3.7,1241.12,6.5,-822.07,-929.82,1050,1950,1950,1500
3.8,1238.77,8.73,-804.1,-942.32,1050,1950,1950,1500
3.9,1238.77,8.73,-804.1,-942.32,1050,1950,1950,1500
4.0,1236.07,11.0,-802.25,-940.35,1050,1950,1950,1500
4.1,1236.07,11.0,-802.25,-940.35,1050,1950,1950,1500
4.2,1236.07,11.0,-802.25,-940.35,1050,1950,1950,1500
4.3,1233.05,13.36,-800.19,-938.15,1050,1950,1950,1500
4.4,1233.05,13.36,-800.19,-938.15,1050,1950,1950,1500
4.5,1229.84,15.66,-798.0,-935.78,1050,1950,1950,1500
4.6,1229.84,15.66,-798.0,-935.78,1050,1950,1950,1500
4.7,1229.84,15.66,-798.0,-935.78,1050,1950,1950,1500
4.8,1226.54,17.79,-795.77,-933.35,1050,1950,1950,1500
4.9,1226.54,17.79,-795.77,-933.35,1050,1950,1950,1500
5.0,1223.11,19.99,-809.58,-916.83,1050,1950,1950,1500
5.1,1223.11,19.99,-809.58,-916.83,1050,1950,1950,1500
5.2,1223.11,19.99,-809.58,-916.83,1050,1950,1950,1500
5.3,1219.6,22.23,-807.17,-914.28,1050,1950,1950,1500
5.4,1219.6,22.23,-807.17,-914.28,1050,1950,1950,1500
5.5,1216.06,24.44,-804.73,-911.71,1050,1950,1950,1500
5.6,1216.06,24.44,-804.73,-911.71,1050,1950,1950,1500
5.7,1216.06,24.44,-804.73,-911.71,1050,1950,1950,1500
5.8,1212.49,26.64,-802.29,-909.1,1050,1950,1950,1500
5.9,1212.49,26.64,-802.29,-909.1,1050,1950,1950,1500
6.0,1208.91,28.86,-799.84,-906.48,1050,1950,1950,1500
6.1,1208.91,28.86,-799.84,-906.48,1050,1950,1950,1500
6.2,1208.91,28.86,-799.84,-906.48,1050,1950,1950,1500
6.3,1205.27,31.12,-797.35,-903.83,1050,1950,1950,1500
6.4,1205.27,31.12,-797.35,-903.83,1050,1950,1950,1500
6.5,1201.6,33.52,-794.82,-901.17,1050,1950,1950,1500
6.6,1201.6,33.52,-794.82,-901.17,1050,1950,1950,1500
6.7,1197.95,35.88,-792.33,-898.5,1050,1950,1950,1500
6.8,1197.95,35.88,-792.33,-898.5,1050,1950,1950,1500
6.9,1197.95,35.88,-792.33,-898.5,1050,1950,1950,1500
7.0,1194.31,38.19,-789.83,-895.84,1050,1950,1950,1500
7.1,1194.31,38.19,-789.83,-895.84,1050,1950,1950,1500
7.2,1190.68,40.46,-787.35,-893.19,1050,1950,1950,1500
7.3,1190.68,40.46,-787.35,-893.19,1050,1950,1950,1500
7.4,1190.68,40.46,-787.35,-893.19,1050,1950,1950,1500
7.5,1187.06,42.68,-784.87,-890.55,1050,1950,1950,1500
7.6,1187.06,42.68,-784.87,-890.55,1050,1950,1950,1500
7.7,1183.44,44.84,-782.4,-887.91,1050,1950,1950,1500
7.8,1183.44,44.84,-782.4,-887.91,1050,1950,1950,1500
7.9,1183.44,44.84,-782.4,-887.91,1050,1950,1950,1500
8.0,1179.82,47.01,-779.92,-885.27,1050,1950,1950,1500
8.1,1179.82,47.01,-779.92,-885.27,1050,1950,1950,1500
8.2,1176.17,49.2,-777.42,-882.61,1050,1950,1950,1500
8.3,1176.17,49.2,-777.42,-882.61,1050,1950,1950,1500
8.4,1176.17,49.2,-777.42,-882.61,1050,1950,1950,1500
8.5,1172.5,51.41,-774.92,-879.92,1050,1950,1950,1500
8.6,1172.5,51.41,-774.92,-879.92,1050,1950,1950,1500
8.7,1168.83,53.66,-772.41,-877.24,1050,1950,1950,1500
8.8,1168.83,53.66,-772.41,-877.24,1050,1950,1950,1500
8.9,1168.83,53.66,-772.41,-877.24,1050,1950,1950,1500
9.0,1165.18,55.95,-769.92,-874.56,1050,1950,1950,1500
9.1,1165.18,55.95,-769.92,-874.56,1050,1950,1950,1500
9.2,1161.5,58.28,-767.4,-871.88,1050,1950,1950,1500
9.3,1161.5,58.28,-767.4,-871.88,1050,1950,1950,1500
9.4,1161.5,58.28,-767.4,-871.88,1050,1950,1950,1500
9.5,1157.83,60.62,-764.9,-869.19,1050,1950,1950,1500
9.6,1157.83,60.62,-764.9,-869.19,1050,1950,1950,1500
9.7,1154.12,63.09,-762.37,-866.48,1050,1950,1950,1500
9.8,1154.12,63.09,-762.37,-866.48,1050,1950,1950,1500
9.9,1154.12,63.09,-762.37,-866.48,1050,1950,1950,1500
10.0,1150.42,65.58,-759.86,-863.76,1050,1950,1950,1500
10.1,1150.42,65.58,-759.86,-863.76,1050,1950,1950,1500
10.2,1146.76,67.94,-757.36,-861.08,1050,1950,1950,1500
10.3,1146.76,67.94,-757.36,-861.08,1050,1950,1950,1500
10.4,1146.76,67.94,-757.36,-861.08,1050,1950,1950,1500
10.5,1143.07,70.31,-754.85,-858.38,1050,1950,1950,1500
10.6,1143.07,70.31,-754.85,-858.38,1050,1950,1950,1500
10.7,1139.4,72.65,-752.34,-855.69,1050,1950,1950,1500
10.8,1139.4,72.65,-752.34,-855.69,1050,1950,1950,1500
10.9,1139.4,72.65,-752.34,-855.69,1050,1950,1950,1500
11.0,1135.77,74.92,-749.88,-853.03,1050,1950,1950,1500
11.1,1135.77,74.92,-749.88,-853.03,1050,1950,1950,1500
11.2,1132.15,77.17,-747.42,-850.37,1050,1950,1950,1500
11.3,1132.15,77.17,-747.42,-850.37,1050,1950,1950,1500
11.4,1132.15,77.17,-747.42,-850.37,1050,1950,1950,1500
11.5,1128.52,79.47,-744.95,-847.7,1050,1950,1950,1500
11.6,1128.52,79.47,-744.95,-847.7,1050,1950,1950,1500
11.7,1124.87,81.81,-742.47,-845.02,1050,1950,1950,1500
11.8,1124.87,81.81,-742.47,-845.02,1050,1950,1950,1500
11.9,1124.87,81.81,-742.47,-845.02,1050,1950,1950,1500
12.0,1121.26,84.01,-740.01,-842.38,1050,1950,1950,1500
12.1,1121.26,84.01,-740.01,-842.38,1050,1950,1950,1500
12.2,1117.71,86.0,-737.6,-839.78,1050,1950,1950,1500
12.3,1117.71,86.0,-737.6,-839.78,1050,1950,1950,1500
12.4,1117.71,86.0,-737.6,-839.78,1050,1950,1950,1500
12.5,1114.14,87.97,-735.18,-837.16,1050,1950,1950,1500
12.6,1114.14,87.97,-735.18,-837.16,1050,1950,1950,1500
12.7,1110.53,89.93,-732.72,-834.51,1050,1950,1950,1500
12.8,1110.53,89.93,-732.72,-834.51,1050,1950,1950,1500
12.9,1110.53,89.93,-732.72,-834.51,1050,1950,1950,1500
13.0,1106.88,92.05,-730.23,-831.83,1050,1950,1950,1500
13.1,1106.88,92.05,-730.23,-831.83,1050,1950,1950,1500
13.2,1103.21,94.2,-727.74,-829.14,1050,1950,1950,1500
13.3,1103.21,94.2,-727.74,-829.14,1050,1950,1950,1500
13.4,1103.21,94.2,-727.74,-829.14,1050,1950,1950,1500
13.5,1099.52,96.44,-725.24,-826.43,1050,1950,1950,1500
13.6,1099.52,96.44,-725.24,-826.43,1050,1950,1950,1500
13.7,1095.83,98.69,-722.73,-823.71,1050,1950,1950,1500
13.8,1095.83,98.69,-722.73,-823.71,1050,1950,1950,1500
13.9,1095.83,98.69,-722.73,-823.71,1050,1950,1950,1500
14.0,1092.16,100.87,-720.24,-821.02,1050,1950,1950,1500
14.1,1092.16,100.87,-720.24,-821.02,1050,1950,1950,1500
14.2,1088.53,102.92,-717.78,-818.35,1050,1950,1950,1500
14.3,1088.53,102.92,-717.78,-818.35,1050,1950,1950,1500
14.4,1088.53,102.92,-717.78,-818.35,1050,1950,1950,1500
14.5,1084.85,105.04,-715.28,-815.65,1050,1950,1950,1500
14.6,1084.85,105.04,-715.28,-815.65,1050,1950,1950,1500
14.7,1081.13,107.32,-712.76,-812.9,1050,1950,1950,1500
14.8,1081.13,107.32,-712.76,-812.9,1050,1950,1950,1500
14.9,1081.13,107.32,-712.76,-812.9,1050,1950,1950,1500
15.0,1077.42,109.6,-710.25,-810.17,1050,1950,1950,1500
15.1,1077.42,109.6,-710.25,-810.17,1050,1950,1950,1500
15.2,1073.71,111.93,-707.72,-807.45,1050,1950,1950,1500
15.3,1073.71,111.93,-707.72,-807.45,1050,1950,1950,1500
15.4,1073.71,111.93,-707.72,-807.45,1050,1950,1950,1500
15.5,1070.0,114.22,-705.21,-804.72,1050,1950,1950,1500
15.6,1070.0,114.22,-705.21,-804.72,1050,1950,1950,1500
15.8,1066.33,116.44,-702.73,-802.02,1050,1950,1950,1500
15.9,1066.33,116.44,-702.73,-802.02,1050,1950,1950,1500
16.0,1066.33,116.44,-702.73,-802.02,1050,1950,1950,1500
16.1,1062.68,118.61,-700.24,-799.34,1050,1950,1950,1500
16.2,1062.68,118.61,-700.24,-799.34,1050,1950,1950,1500
16.3,1059.02,120.77,-697.76,-796.65,1050,1950,1950,1500
16.4,1059.02,120.77,-697.76,-796.65,1050,1950,1950,1500
16.5,1059.02,120.77,-697.76,-796.65,1050,1950,1950,1500
16.6,1055.36,122.92,-695.27,-793.97,1050,1950,1939,1500
16.7,1055.36,122.92,-695.27,-793.97,1050,1950,1950,1500
16.8,1051.66,125.15,-692.75,-791.26,1050,1950,1891,1500
16.9,1051.66,125.15,-692.75,-791.26,1050,1950,1950,1500
17.0,1051.66,125.15,-692.75,-791.26,1050,1950,1950,1500
17.1,1047.99,127.33,-690.26,-788.57,1050,1950,1846,1500
17.2,1047.99,127.33,-690.26,-788.57,1050,1950,1949,1500
17.3,1044.37,129.41,-687.8,-785.9,1050,1950,1809,1500
17.4,1044.37,129.41,-687.8,-785.9,1050,1950,1907,1500
17.5,1044.37,129.41,-687.8,-785.9,1050,1950,1901,1500
17.6,1040.71,131.56,-685.31,-783.22,1050,1950,1754,1500
17.7,1040.71,131.56,-685.31,-783.22,1050,1950,1856,1500
17.8,1037.07,133.66,-682.82,-780.56,1050,1950,1713,1500
17.9,1037.07,133.66,-682.82,-780.56,1050,1950,1811,1500
18.0,1037.07,133.66,-682.82,-780.56,1050,1950,1804,1500
18.1,1033.48,135.66,-680.37,-777.93,1050,1950,1667,1500
18.2,1033.48,135.66,-680.37,-777.93,1050,1950,1760,1500
18.3,1029.94,137.57,-677.96,-775.33,1050,1950,1628,1500
18.4,1029.94,137.57,-677.96,-775.33,1050,1950,1716,1500
18.5,1029.94,137.57,-677.96,-775.33,1050,1950,1709,1500
18.6,1026.46,139.34,-675.58,-772.8,1050,1950,1586,1500
18.7,1026.46,139.34,-675.58,-772.8,1050,1950,1666,1500
18.8,1023.03,140.94,-673.24,-770.29,1050,1950,1554,1500
18.9,1023.03,140.94,-673.24,-770.29,1050,1950,1626,1500
19.0,1023.03,140.94,-673.24,-770.29,1050,1950,1618,1500
19.1,1019.68,142.36,-670.94,-767.83,1050,1950,1517,1500
19.2,1019.68,142.36,-670.94,-767.83,1050,1950,1579,1500
19.3,1016.42,143.65,-668.72,-765.45,1050,1950,1487,1500
19.4,1016.42,143.65,-668.72,-765.45,1050,1950,1543,1500
19.5,1016.42,143.65,-668.72,-765.45,1050,1950,1534,1500
19.6,1013.23,144.78,-666.54,-763.12,1050,1950,1451,1500
19.7,1013.23,144.78,-666.54,-763.12,1050,1950,1499,1500
19.8,1010.13,145.63,-664.42,-760.85,1050,1950,1434,1500
19.9,1010.13,145.63,-664.42,-760.85,1050,1950,1468,1500
20.0,1010.13,145.63,-664.42,-760.85,1050,1950,1459,1500
20.1,1007.11,146.25,-662.36,-758.64,1050,1950,1410,1500
20.2,1007.11,146.25,-662.36,-758.64,1050,1950,1431,1500
20.3,1004.17,146.65,-660.36,-756.49,1050,1950,1396,1500
20.4,1004.17,146.65,-660.36,-756.49,1050,1950,1407,1500
20.5,1004.17,146.65,-660.36,-756.49,1050,1950,1397,1500
20.6,1001.31,146.91,-658.4,-754.4,1050,1950,1371,1500
20.7,1001.31,146.91,-658.4,-754.4,1050,1950,1375,1500
20.8,998.5,147.05,-656.48,-752.36,1050,1950,1356,1500
20.9,998.5,147.05,-656.48,-752.36,1050,1950,1354,1500
21.0,998.5,147.05,-656.48,-752.36,1050,1950,1344,1500
21.1,995.76,146.98,-654.6,-750.35,1050,1950,1339,1500
21.2,995.76,146.98,-654.6,-750.35,1050,1950,1326,1500
21.3,993.09,146.76,-652.79,-748.4,1050,1950,1332,1500
21.4,993.09,146.76,-652.79,-748.4,1050,1950,1311,1500
21.5,993.09,146.76,-652.79,-748.4,1050,1950,1302,1500
21.6,990.52,146.37,-651.04,-746.51,1050,1950,1317,1500
21.7,990.52,146.37,-651.04,-746.51,1050,1950,1289,1500
21.8,988.01,145.79,-649.34,-744.66,1050,1950,1318,1500
21.9,988.01,145.79,-649.34,-744.66,1050,1950,1279,1500
22.0,988.01,145.79,-649.34,-744.66,1050,1950,1270,1500
22.1,985.55,145.02,-647.67,-742.85,1050,1950,1311,1500
22.2,985.55,145.02,-647.67,-742.85,1050,1950,1264,1500
22.3,983.17,144.07,-646.06,-741.1,1050,1950,1317,1500
22.4,983.17,144.07,-646.06,-741.1,1050,1950,1260,1500
22.5,983.17,144.07,-646.06,-741.1,1050,1950,1251,1500
22.6,980.86,142.95,-644.51,-739.39,1050,1950,1316,1500
22.7,980.86,142.95,-644.51,-739.39,1050,1950,1251,1500
22.8,978.62,141.67,-642.98,-737.74,1050,1950,1326,1500
23.7,978.62,141.67,-642.98,-737.74,1050,1950,1254,1500
23.8,978.62,141.67,-642.98,-737.74,1050,1950,1245,1500
23.9,976.42,140.25,-641.5,-736.13,1050,1950,1330,1500
24.0,976.42,140.25,-641.5,-736.13,1050,1950,1251,1500
24.1,974.29,138.71,-640.06,-734.55,1050,1950,1343,1500
24.2,974.29,138.71,-640.06,-734.55,1050,1950,1258,1500
24.3,972.23,137.09,-638.67,-733.02,1050,1950,1356,1500
24.4,972.23,137.09,-638.67,-733.02,1050,1950,1268,1500
24.5,972.23,137.09,-638.67,-733.02,1050,1950,1260,1500
24.6,970.21,135.38,-637.33,-731.53,1050,1950,1364,1500
24.7,970.21,135.38,-637.33,-731.53,1050,1950,1272,1500
24.8,970.21,135.38,-637.33,-731.53,1050,1950,1265,1500
24.9,968.22,133.54,-635.99,-730.04,1050,1950,1377,1500
25.0,968.22,133.54,-635.99,-730.04,1050,1950,1279,1500
25.1,966.26,131.64,-634.68,-728.58,1050,1950,1396,1500
25.2,966.26,131.64,-634.68,-728.58,1050,1950,1295,1500
25.3,964.3,129.7,-633.37,-727.13,1050,1950,1415,1500
25.4,964.3,129.7,-633.37,-727.13,1050,1950,1312,1500
25.5,964.3,129.7,-633.37,-727.13,1050,1950,1306,1500
25.6,962.37,127.8,-632.07,-725.7,1050,1950,1424,1500
25.7,962.37,127.8,-632.07,-725.7,1050,1950,1323,1500
25.8,960.43,125.9,-630.77,-724.26,1050,1950,1441,1500
25.9,960.43,125.9,-630.77,-724.26,1050,1950,1341,1500
26.0,960.43,125.9,-630.77,-724.26,1050,1950,1336,1500
26.1,958.46,124.08,-629.44,-722.8,1050,1950,1450,1500
26.2,958.46,124.08,-629.44,-722.8,1050,1950,1354,1500
26.3,956.5,122.34,-628.13,-721.35,1050,1950,1462,1500
26.4,956.5,122.34,-628.13,-721.35,1050,1950,1371,1500
26.5,956.5,122.34,-628.13,-721.35,1050,1950,1367,1500
26.6,954.5,120.69,-626.78,-719.87,1050,1950,1470,1500
26.7,954.5,120.69,-626.78,-719.87,1050,1950,1383,1500
26.8,952.47,119.1,-625.43,-718.36,1050,1950,1482,1500
26.9,952.47,119.1,-625.43,-718.36,1050,1950,1399,1500
27.0,952.47,119.1,-625.43,-718.36,1050,1950,1395,1500
27.1,950.39,117.62,-624.03,-716.82,1050,1950,1488,1500
27.2,950.39,117.62,-624.03,-716.82,1050,1950,1411,1500
27.3,948.27,116.26,-622.61,-715.25,1050,1950,1496,1500
27.4,948.27,116.26,-622.61,-715.25,1050,1950,1425,1500
27.5,948.27,116.26,-622.61,-715.25,1050,1950,1421,1500
27.6,946.1,115.0,-621.15,-713.63,1050,1950,1500,1500
27.7,946.1,115.0,-621.15,-713.63,1050,1950,1434,1500
27.8,943.88,113.82,-619.66,-711.99,1050,1950,1508,1500
27.9,943.88,113.82,-619.66,-711.99,1050,1950,1446,1500
28.0,943.88,113.82,-619.66,-711.99,1050,1950,1444,1500
28.1,941.56,112.77,-618.1,-710.28,1050,1950,1509,1500
28.2,941.56,112.77,-618.1,-710.28,1050,1950,1454,1500
28.3,939.24,111.88,-616.52,-708.57,1050,1950,1510,1500
28.4,939.24,111.88,-616.52,-708.57,1050,1950,1463,1500
28.5,939.24,111.88,-616.52,-708.57,1050,1950,1460,1500
28.6,936.85,111.14,-614.9,-706.82,1050,1950,1506,1500
28.7,936.85,111.14,-614.9,-706.82,1050,1950,1467,1500
28.8,934.43,110.57,-613.25,-705.04,1050,1950,1502,1500
28.9,934.43,110.57,-613.25,-705.04,1050,1950,1471,1500
29.0,934.43,110.57,-613.25,-705.04,1050,1950,1469,1500
29.1,931.95,110.06,-611.56,-703.23,1050,1950,1500,1500
29.2,931.95,110.06,-611.56,-703.23,1050,1950,1473,1500
29.3,929.42,109.61,-609.83,-701.38,1050,1950,1500,1500
29.4,929.42,109.61,-609.83,-701.38,1050,1950,1476,1500
29.5,929.42,109.61,-609.83,-701.38,1050,1950,1474,1500
29.6,926.86,109.24,-608.07,-699.51,1050,1950,1496,1500
29.7,926.86,109.24,-608.07,-699.51,1050,1950,1476,1500
29.8,924.26,108.94,-606.29,-697.62,1050,1950,1493,1500
29.9,924.26,108.94,-606.29,-697.62,1050,1950,1477,1500
30.0,924.26,108.94,-606.29,-697.62,1050,1950,1475,1500
30.1,921.61,108.75,-604.48,-695.68,1050,1950,1486,1500
30.2,921.61,108.75,-604.48,-695.68,1050,1950,1474,1500
30.3,918.97,108.65,-602.66,-693.76,1050,1950,1479,1500
30.4,918.97,108.65,-602.66,-693.76,1050,1950,1472,1500
30.5,918.97,108.65,-602.66,-693.76,1050,1950,1471,1500
30.6,916.29,108.55,-600.82,-691.81,1050,1950,1475,1500
30.7,916.29,108.55,-600.82,-691.81,1050,1950,1469,1500
30.8,916.29,108.55,-600.82,-691.81,1050,1950,1467,1500
30.9,916.29,108.55,-600.82,-691.81,1050,1950,1465,1500
31.0,916.29,108.55,-600.82,-691.81,1050,1950,1463,1500
31.1,916.29,108.55,-600.82,-691.81,1050,1950,1462,1500
31.2,909.1,108.18,-595.88,-686.58,1050,1950,1485,1500
31.3,909.1,108.18,-595.88,-686.58,1050,1950,1464,1500
31.4,909.1,108.18,-595.88,-686.58,1050,1950,1462,1500
31.5,909.1,108.18,-595.88,-686.58,1050,1950,1461,1500
31.6,909.1,108.18,-595.88,-686.58,1050,1950,1459,1500
31.7,903.75,108.05,-592.2,-682.69,1050,1950,1466,1500
31.8,903.75,108.05,-592.2,-682.69,1050,1950,1458,1500
31.9,903.75,108.05,-592.2,-682.69,1050,1950,1456,1500
32.0,903.75,108.05,-592.2,-682.69,1050,1950,1455,1500
32.1,903.75,108.05,-592.2,-682.69,1050,1950,1453,1500
32.2,898.4,108.07,-588.5,-678.82,1050,1950,1450,1500
32.3,898.4,108.07,-588.5,-678.82,1050,1950,1450,1500
32.4,898.4,108.07,-588.5,-678.82,1050,1950,1448,1500
32.5,898.4,108.07,-588.5,-678.82,1050,1950,1446,1500
32.6,898.4,108.07,-588.5,-678.82,1050,1950,1445,1500
32.7,893.11,108.08,-584.84,-674.99,1050,1950,1442,1500
32.8,893.11,108.08,-584.84,-674.99,1050,1950,1441,1500
32.9,893.11,108.08,-584.84,-674.99,1050,1950,1440,1500
33.0,893.11,108.08,-584.84,-674.99,1050,1950,1438,1500
33.1,893.11,108.08,-584.84,-674.99,1050,1950,1436,1500
33.2,887.82,107.9,-581.19,-671.15,1050,1950,1447,1500
33.3,887.82,107.9,-581.19,-671.15,1050,1950,1436,1500
33.4,887.82,107.9,-581.19,-671.15,1050,1950,1434,1500
33.5,887.82,107.9,-581.19,-671.15,1050,1950,1433,1500
33.6,887.82,107.9,-581.19,-671.15,1050,1950,1431,1500
33.7,882.61,107.44,-577.58,-667.38,1050,1950,1460,1500
33.8,882.61,107.44,-577.58,-667.38,1050,1950,1435,1500
33.9,882.61,107.44,-577.58,-667.38,1050,1950,1434,1500
34.0,882.61,107.44,-577.58,-667.38,1050,1950,1432,1500
34.1,882.61,107.44,-577.58,-667.38,1050,1950,1431,1500
34.2,877.4,106.96,-573.97,-663.61,1050,1950,1461,1500
34.3,877.4,106.96,-573.97,-663.61,1050,1950,1435,1500
34.4,877.4,106.96,-573.97,-663.61,1050,1950,1434,1500
34.5,877.4,106.96,-573.97,-663.61,1050,1950,1432,1500
34.6,877.4,106.96,-573.97,-663.61,1050,1950,1431,1500
34.7,872.19,106.43,-570.37,-659.84,1050,1950,1464,1500
34.8,872.19,106.43,-570.37,-659.84,1050,1950,1436,1500
34.9,872.19,106.43,-570.37,-659.84,1050,1950,1435,1500
35.0,872.19,106.43,-570.37,-659.84,1050,1950,1434,1500
35.1,872.19,106.43,-570.37,-659.84,1050,1950,1433,1500
35.2,866.93,105.66,-566.74,-656.03,1050,1950,1482,1500
35.3,866.93,105.66,-566.74,-656.03,1050,1950,1442,1500
35.4,866.93,105.66,-566.74,-656.03,1050,1950,1441,1500
35.5,866.93,105.66,-566.74,-656.03,1050,1950,1440,1500
35.6,866.93,105.66,-566.74,-656.03,1050,1950,1438,1500
35.7,861.7,104.84,-563.12,-652.24,1050,1950,1490,1500
35.8,861.7,104.84,-563.12,-652.24,1050,1950,1449,1500
35.9,861.7,104.84,-563.12,-652.24,1050,1950,1448,1500
36.0,861.7,104.84,-563.12,-652.24,1050,1950,1447,1500
36.1,861.7,104.84,-563.12,-652.24,1050,1950,1446,1500
36.2,856.51,104.16,-559.51,-648.5,1050,1950,1489,1500
36.3,856.51,104.16,-559.51,-648.5,1050,1950,1454,1500
36.4,856.51,104.16,-559.51,-648.5,1050,1950,1453,1500
36.5,856.51,104.16,-559.51,-648.5,1050,1950,1453,1500
36.6,856.51,104.16,-559.51,-648.5,1050,1950,1452,1500
36.7,851.33,103.41,-555.91,-644.77,1050,1950,1500,1500
36.8,851.33,103.41,-555.91,-644.77,1050,1950,1462,1500
36.9,851.33,103.41,-555.91,-644.77,1050,1950,1461,1500
37.0,851.33,103.41,-555.91,-644.77,1050,1950,1460,1500
37.1,851.33,103.41,-555.91,-644.77,1050,1950,1460,1500
37.2,846.04,102.95,-552.26,-640.94,1050,1950,1489,1500
37.3,846.04,102.95,-552.26,-640.94,1050,1950,1465,1500
37.4,846.04,102.95,-552.26,-640.94,1050,1950,1465,1500
37.5,846.04,102.95,-552.26,-640.94,1050,1950,1464,1500
37.6,846.04,102.95,-552.26,-640.94,1050,1950,1464,1500
37.7,840.77,102.62,-548.62,-637.12,1050,1950,1484,1500
37.8,840.77,102.62,-548.62,-637.12,1050,1950,1467,1500
37.9,840.77,102.62,-548.62,-637.12,1050,1950,1467,1500
38.0,840.77,102.62,-548.62,-637.12,1050,1950,1466,1500
38.1,840.77,102.62,-548.62,-637.12,1050,1950,1466,1500
38.2,835.46,102.33,-544.95,-633.26,1050,1950,1484,1500
38.3,835.46,102.33,-544.95,-633.26,1050,1950,1469,1500
38.4,835.46,102.33,-544.95,-633.26,1050,1950,1469,1500
38.5,835.46,102.33,-544.95,-633.26,1050,1950,1468,1500
38.6,835.46,102.33,-544.95,-633.26,1050,1950,1468,1500
38.7,830.14,101.96,-541.28,-629.4,1050,1950,1492,1500
38.8,830.14,101.96,-541.28,-629.4,1050,1950,1473,1500
38.9,830.14,101.96,-541.28,-629.4,1050,1950,1472,1500
39.0,830.14,101.96,-541.28,-629.4,1050,1950,1472,1500
39.1,830.14,101.96,-541.28,-629.4,1050,1950,1472,1500
39.2,824.78,101.74,-537.57,-625.52,1050,1950,1486,1500
39.3,824.78,101.74,-537.57,-625.52,1050,1950,1474,1500
39.4,824.78,101.74,-537.57,-625.52,1050,1950,1474,1500
39.5,824.78,101.74,-537.57,-625.52,1050,1950,1473,1500
39.6,824.78,101.74,-537.57,-625.52,1050,1950,1473,1500
39.7,819.38,101.59,-533.84,-621.6,1050,1950,1483,1500
39.8,819.38,101.59,-533.84,-621.6,1050,1950,1475,1500
39.9,819.38,101.59,-533.84,-621.6,1050,1950,1474,1500
40.0,819.38,101.59,-533.84,-621.6,1050,1950,1474,1500
40.1,819.38,101.59,-533.84,-621.6,1050,1950,1474,1500
40.2,813.98,101.3,-530.11,-617.69,1050,1950,1493,1500
40.3,813.98,101.3,-530.11,-617.69,1050,1950,1478,1500
40.4,813.98,101.3,-530.11,-617.69,1050,1950,1477,1500
40.5,813.98,101.3,-530.11,-617.69,1050,1950,1477,1500
40.6,813.98,101.3,-530.11,-617.69,1050,1950,1477,1500
40.7,813.98,101.3,-530.11,-617.69,1050,1950,1477,1500
40.8,807.66,100.88,-525.73,-613.13,1050,1950,1504,1500
40.9,807.66,100.88,-525.73,-613.13,1050,1950,1483,1500
41.0,807.66,100.88,-525.73,-613.13,1050,1950,1482,1500
41.1,804.94,100.73,-523.85,-611.16,1050,1950,1492,1500
41.2,804.94,100.73,-523.85,-611.16,1050,1950,1484,1500
41.3,802.2,100.62,-521.95,-609.17,1050,1950,1491,1500
41.4,802.2,100.62,-521.95,-609.17,1050,1950,1486,1500
41.5,799.46,100.56,-520.07,-607.18,1050,1950,1489,1500
41.6,799.46,100.56,-520.07,-607.18,1050,1950,1486,1500
41.7,799.46,100.56,-520.07,-607.18,1050,1950,1486,1500
41.8,796.72,100.51,-518.18,-605.19,1050,1950,1490,1500
41.9,796.72,100.51,-518.18,-605.19,1050,1950,1487,1500
42.0,794.0,100.51,-516.31,-603.2,1050,1950,1486,1500
42.1,794.0,100.51,-516.31,-603.2,1050,1950,1487,1500
42.2,794.0,100.51,-516.31,-603.2,1050,1950,1487,1500
42.3,791.25,100.53,-514.42,-601.2,1050,1950,1485,1500
42.4,791.25,100.53,-514.42,-601.2,1050,1950,1486,1500
42.5,788.48,100.51,-512.51,-599.19,1050,1950,1487,1500
42.6,788.48,100.51,-512.51,-599.19,1050,1950,1486,1500
42.7,788.48,100.51,-512.51,-599.19,1050,1950,1486,1500
42.8,785.74,100.44,-510.62,-597.2,1050,1950,1491,1500
42.9,785.74,100.44,-510.62,-597.2,1050,1950,1487,1500
43.0,782.99,100.41,-508.73,-595.21,1050,1950,1488,1500
43.1,782.99,100.41,-508.73,-595.21,1050,1950,1487,1500
43.2,782.99,100.41,-508.73,-595.21,1050,1950,1487,1500
43.3,780.24,100.42,-506.83,-593.21,1050,1950,1486,1500
43.4,780.24,100.42,-506.83,-593.21,1050,1950,1487,1500
43.5,777.49,100.4,-504.93,-591.21,1050,1950,1488,1500
43.6,777.49,100.4,-504.93,-591.21,1050,1950,1487,1500
43.7,777.49,100.4,-504.93,-591.21,1050,1950,1487,1500
43.8,774.73,100.39,-503.02,-589.21,1050,1950,1487,1500
43.9,774.73,100.39,-503.02,-589.21,1050,1950,1487,1500
44.0,771.97,100.41,-501.12,-587.22,1050,1950,1486,1500
44.1,771.97,100.41,-501.12,-587.22,1050,1950,1486,1500
44.2,771.97,100.41,-501.12,-587.22,1050,1950,1486,1500
44.3,769.23,100.4,-499.21,-585.24,1050,1950,1487,1500
44.4,769.23,100.4,-499.21,-585.24,1050,1950,1486,1500
44.5,766.46,100.4,-497.29,-583.24,1050,1950,1486,1500
44.6,766.46,100.4,-497.29,-583.24,1050,1950,1486,1500
44.7,766.46,100.4,-497.29,-583.24,1050,1950,1486,1500
44.8,763.69,100.39,-495.37,-581.23,1050,1950,1487,1500
44.9,763.69,100.39,-495.37,-581.23,1050,1950,1486,1500
45.0,760.92,100.44,-493.46,-579.23,1050,1950,1482,1500
45.1,760.92,100.44,-493.46,-579.23,1050,1950,1485,1500
45.2,760.92,100.44,-493.46,-579.23,1050,1950,1485,1500
45.3,758.15,100.51,-491.53,-577.22,1050,1950,1480,1500
45.4,758.15,100.51,-491.53,-577.22,1050,1950,1484,1500
45.5,755.39,100.49,-489.63,-575.22,1050,1950,1485,1500
45.6,755.39,100.49,-489.63,-575.22,1050,1950,1484,1500
45.7,755.39,100.49,-489.63,-575.22,1050,1950,1484,1500
45.8,752.63,100.5,-487.72,-573.21,1050,1950,1483,1500
45.9,752.63,100.5,-487.72,-573.21,1050,1950,1483,1500
46.0,749.85,100.6,-485.8,-571.2,1050,1950,1477,1500
46.1,749.85,100.6,-485.8,-571.2,1050,1950,1482,1500
46.2,749.85,100.6,-485.8,-571.2,1050,1950,1482,1500
46.3,747.08,100.77,-483.89,-569.19,1050,1950,1470,1500
46.4,747.08,100.77,-483.89,-569.19,1050,1950,1479,1500
46.5,744.31,100.93,-481.99,-567.18,1050,1950,1468,1500
46.6,744.31,100.93,-481.99,-567.18,1050,1950,1476,1500
46.7,744.31,100.93,-481.99,-567.18,1050,1950,1476,1500
46.8,741.53,101.11,-480.07,-565.16,1050,1950,1464,1500
46.9,741.53,101.11,-480.07,-565.16,1050,1950,1473,1500
47.0,738.77,101.28,-478.15,-563.16,1050,1950,1461,1500
47.1,738.77,101.28,-478.15,-563.16,1050,1950,1470,1500
47.2,738.77,101.28,-478.15,-563.16,1050,1950,1469,1500
47.3,736.01,101.37,-476.25,-561.17,1050,1950,1463,1500
47.4,736.01,101.37,-476.25,-561.17,1050,1950,1467,1500
47.5,733.28,101.36,-474.35,-559.18,1050,1950,1468,1500
47.6,733.28,101.36,-474.35,-559.18,1050,1950,1467,1500
47.7,733.28,101.36,-474.35,-559.18,1050,1950,1467,1500
47.8,730.55,101.31,-472.46,-557.21,1050,1950,1469,1500
47.9,730.55,101.31,-472.46,-557.21,1050,1950,1467,1500
48.0,727.84,101.28,-470.58,-555.25,1050,1950,1469,1500
48.1,727.84,101.28,-470.58,-555.25,1050,1950,1467,1500
48.2,727.84,101.28,-470.58,-555.25,1050,1950,1467,1500
48.3,725.14,101.21,-468.71,-553.3,1050,1950,1471,1500
48.4,725.14,101.21,-468.71,-553.3,1050,1950,1467,1500
48.5,722.43,101.13,-466.84,-551.33,1050,1950,1472,1500
48.6,722.43,101.13,-466.84,-551.33,1050,1950,1468,1500
48.7,722.43,101.13,-466.84,-551.33,1050,1950,1468,1500
48.8,719.71,101.0,-464.96,-549.36,1050,1950,1476,1500
48.9,719.71,101.0,-464.96,-549.36,1050,1950,1469,1500
49.0,717.0,100.95,-463.09,-547.39,1050,1950,1472,1500
49.1,717.0,100.95,-463.09,-547.39,1050,1950,1470,1500
49.2,717.0,100.95,-463.09,-547.39,1050,1950,1469,1500
49.3,714.28,100.94,-461.21,-545.42,1050,1950,1470,1500
49.4,714.28,100.94,-461.21,-545.42,1050,1950,1469,1500
49.5,711.56,100.92,-459.33,-543.45,1050,1950,1470,1500
49.6,711.56,100.92,-459.33,-543.45,1050,1950,1469,1500
49.7,711.56,100.92,-459.33,-543.45,1050,1950,1469,1500
49.8,708.86,100.79,-457.46,-541.49,1050,1950,1477,1500
49.9,708.86,100.79,-457.46,-541.49,1050,1950,1471,1500
50.0,706.15,100.64,-455.58,-539.53,1050,1950,1480,1500
50.1,706.15,100.64,-455.58,-539.53,1050,1950,1473,1500
50.2,706.15,100.64,-455.58,-539.53,1050,1950,1472,1500
50.3,703.43,100.51,-453.68,-537.57,1050,1950,1481,1500
50.4,703.43,100.51,-453.68,-537.57,1050,1950,1474,1500
50.5,700.73,100.38,-451.81,-535.61,1050,1950,1483,1500
50.6,700.73,100.38,-451.81,-535.61,1050,1950,1476,1500
50.7,700.73,100.38,-451.81,-535.61,1050,1950,1476,1500
50.8,698.0,100.27,-449.93,-533.64,1050,1950,1483,1500
50.9,698.0,100.27,-449.93,-533.64,1050,1950,1477,1500
51.0,695.27,100.08,-448.05,-531.65,1050,1950,1490,1500
51.1,695.27,100.08,-448.05,-531.65,1050,1950,1480,1500
51.2,695.27,100.08,-448.05,-531.65,1050,1950,1480,1500
51.3,692.54,99.94,-446.16,-529.67,1050,1950,1489,1500
51.5,692.54,99.94,-446.16,-529.67,1050,1950,1482,1500
51.6,689.82,99.91,-444.28,-527.7,1050,1950,1484,1500
51.7,689.82,99.91,-444.28,-527.7,1050,1950,1483,1500
51.8,689.82,99.91,-444.28,-527.7,1050,1950,1483,1500
51.9,687.1,99.93,-442.39,-525.73,1050,1950,1482,1500
52.0,687.1,99.93,-442.39,-525.73,1050,1950,1483,1500
52.1,684.36,99.93,-440.5,-523.74,1050,1950,1483,1500
52.2,684.36,99.93,-440.5,-523.74,1050,1950,1483,1500
52.3,684.36,99.93,-440.5,-523.74,1050,1950,1483,1500
52.4,681.61,99.91,-438.6,-521.76,1050,1950,1484,1500
52.5,681.61,99.91,-438.6,-521.76,1050,1950,1483,1500
52.6,678.87,99.88,-436.71,-519.76,1050,1950,1485,1500
52.7,678.87,99.88,-436.71,-519.76,1050,1950,1483,1500
52.8,678.87,99.88,-436.71,-519.76,1050,1950,1483,1500
52.9,676.12,99.86,-434.8,-517.77,1050,1950,1485,1500
53.0,676.12,99.86,-434.8,-517.77,1050,1950,1484,1500
53.1,673.35,99.85,-432.88,-515.77,1050,1950,1484,1500
53.2,673.35,99.85,-432.88,-515.77,1050,1950,1484,1500
53.3,673.35,99.85,-432.88,-515.77,1050,1950,1484,1500
53.4,670.6,99.88,-430.96,-513.78,1050,1950,1483,1500
53.5,670.6,99.88,-430.96,-513.78,1050,1950,1484,1500
53.6,667.86,99.87,-429.07,-511.8,1050,1950,1485,1500
53.7,667.86,99.87,-429.07,-511.8,1050,1950,1484,1500
53.8,667.86,99.87,-429.07,-511.8,1050,1950,1484,1500
53.9,665.13,99.89,-427.18,-509.82,1050,1950,1483,1500
54.0,665.13,99.89,-427.18,-509.82,1050,1950,1484,1500
54.1,662.4,99.89,-425.29,-507.84,1050,1950,1484,1500
54.2,662.4,99.89,-425.29,-507.84,1050,1950,1484,1500
54.3,662.4,99.89,-425.29,-507.84,1050,1950,1484,1500
54.4,659.66,99.89,-423.39,-505.86,1050,1950,1484,1500
54.5,659.66,99.89,-423.39,-505.86,1050,1950,1484,1500
54.6,656.92,99.93,-421.49,-503.88,1050,1950,1482,1500
54.7,656.92,99.93,-421.49,-503.88,1050,1950,1483,1500
54.8,656.92,99.93,-421.49,-503.88,1050,1950,1483,1500
54.9,654.17,99.98,-419.59,-501.89,1050,1950,1480,1500
55.0,654.17,99.98,-419.59,-501.89,1050,1950,1482,1500
55.1,651.41,100.04,-417.68,-499.88,1050,1950,1479,1500
55.2,651.41,100.04,-417.68,-499.88,1050,1950,1482,1500
55.3,651.41,100.04,-417.68,-499.88,1050,1950,1482,1500
55.4,648.67,100.12,-415.79,-497.89,1050,1950,1476,1500
55.5,648.67,100.12,-415.79,-497.89,1050,1950,1480,1500
55.6,645.92,100.21,-413.89,-495.9,1050,1950,1474,1500
55.7,645.92,100.21,-413.89,-495.9,1050,1950,1479,1500
55.8,645.92,100.21,-413.89,-495.9,1050,1950,1479,1500
55.9,643.17,100.33,-411.97,-493.91,1050,1950,1471,1500
56.8,643.17,100.33,-411.97,-493.91,1050,1950,1477,1500
56.9,640.42,100.44,-410.06,-491.93,1050,1950,1470,1500
57.0,640.42,100.44,-410.06,-491.93,1050,1950,1475,1500
57.1,640.42,100.44,-410.06,-491.93,1050,1950,1475,1500
57.2,637.68,100.52,-408.15,-489.94,1050,1950,1470,1500
57.3,637.68,100.52,-408.15,-489.94,1050,1950,1474,1500
57.4,634.93,100.63,-406.24,-487.97,1050,1950,1467,1500
57.5,634.93,100.63,-406.24,-487.97,1050,1950,1472,1500
57.6,634.93,100.63,-406.24,-487.97,1050,1950,1472,1500
57.7,632.21,100.71,-404.35,-486.0,1050,1950,1466,1500
57.8,632.21,100.71,-404.35,-486.0,1050,1950,1470,1500
57.9,629.48,100.7,-402.44,-484.03,1050,1950,1470,1500
58.0,629.48,100.7,-402.44,-484.03,1050,1950,1470,1500
58.1,629.48,100.7,-402.44,-484.03,1050,1950,1470,1500
58.2,626.76,100.68,-400.54,-482.07,1050,1950,1471,1500
58.3,626.76,100.68,-400.54,-482.07,1050,1950,1470,1500
58.4,624.03,100.67,-398.65,-480.1,1050,1950,1471,1500
58.5,624.03,100.67,-398.65,-480.1,1050,1950,1470,1500
58.6,624.03,100.67,-398.65,-480.1,1050,1950,1470,1500
58.7,621.32,100.56,-396.75,-478.14,1050,1950,1476,1500
58.8,621.32,100.56,-396.75,-478.14,1050,1950,1471,1500
58.9,618.6,100.35,-394.86,-476.19,1050,1950,1485,1500
59.0,618.6,100.35,-394.86,-476.19,1050,1950,1474,1500
59.1,615.9,100.14,-392.98,-474.24,1050,1950,1488,1500
59.2,615.9,100.14,-392.98,-474.24,1050,1950,1477,1500
59.3,615.9,100.14,-392.98,-474.24,1050,1950,1477,1500
59.4,613.19,99.99,-391.1,-472.28,1050,1950,1487,1500
59.5,613.19,99.99,-391.1,-472.28,1050,1950,1479,1500
59.6,610.48,99.9,-389.21,-470.33,1050,1950,1485,1500
59.7,610.48,99.9,-389.21,-470.33,1050,1950,1481,1500
59.8,610.48,99.9,-389.21,-470.33,1050,1950,1481,1500
59.9,607.75,99.88,-387.3,-468.36,1050,1950,1482,1500
60.0,607.75,99.88,-387.3,-468.36,1050,1950,1481,1500
60.1,605.01,99.86,-385.39,-466.38,1050,1950,1482,1500
60.2,605.01,99.86,-385.39,-466.38,1050,1950,1481,1500
60.3,605.01,99.86,-385.39,-466.38,1050,1950,1481,1500
60.4,602.27,99.84,-383.48,-464.41,1050,1950,1483,1500
60.5,602.27,99.84,-383.48,-464.41,1050,1950,1482,1500
60.6,599.55,99.81,-381.59,-462.44,1050,1950,1483,1500
60.7,599.55,99.81,-381.59,-462.44,1050,1950,1482,1500
60.8,599.55,99.81,-381.59,-462.44,1050,1950,1482,1500
60.9,596.82,99.81,-379.69,-460.47,1050,1950,1483,1500
61.0,596.82,99.81,-379.69,-460.47,1050,1950,1482,1500
61.1,594.1,99.78,-377.78,-458.51,1050,1950,1484,1500
61.2,594.1,99.78,-377.78,-458.51,1050,1950,1483,1500
61.3,594.1,99.78,-377.78,-458.51,1050,1950,1483,1500
61.4,591.36,99.76,-375.87,-456.54,1050,1950,1484,1500
61.5,591.36,99.76,-375.87,-456.54,1050,1950,1483,1500
61.6,588.63,99.69,-373.97,-454.58,1050,1950,1488,1500
61.7,588.63,99.69,-373.97,-454.58,1050,1950,1485,1500
61.8,588.63,99.69,-373.97,-454.58,1050,1950,1485,1500
61.9,585.9,99.63,-372.05,-452.6,1050,1950,1489,1500
62.0,585.9,99.63,-372.05,-452.6,1050,1950,1486,1500
62.1,583.12,99.57,-370.12,-450.61,1050,1950,1489,1500
62.2,583.12,99.57,-370.12,-450.61,1050,1950,1487,1500
62.3,583.12,99.57,-370.12,-450.61,1050,1950,1487,1500
62.4,580.39,99.51,-368.21,-448.64,1050,1950,1491,1500
62.5,580.39,99.51,-368.21,-448.64,1050,1950,1488,1500
62.6,577.66,99.4,-366.31,-446.66,1050,1950,1495,1500
62.7,577.66,99.4,-366.31,-446.66,1050,1950,1490,1500
62.8,577.66,99.4,-366.31,-446.66,1050,1950,1490,1500
62.9,574.92,99.24,-364.4,-444.69,1050,1950,1500,1500
63.0,574.92,99.24,-364.4,-444.69,1050,1950,1493,1500
63.1,572.18,99.11,-362.49,-442.71,1050,1950,1502,1500
63.2,572.18,99.11,-362.49,-442.71,1050,1950,1495,1500
63.3,572.18,99.11,-362.49,-442.71,1050,1950,1495,1500
63.4,569.42,98.99,-360.56,-440.72,1050,1950,1503,1500
63.5,569.42,98.99,-360.56,-440.72,1050,1950,1497,1500
63.6,566.65,98.95,-358.64,-438.72,1050,1950,1500,1500
63.7,566.65,98.95,-358.64,-438.72,1050,1950,1498,1500
63.8,566.65,98.95,-358.64,-438.72,1050,1950,1499,1500
63.9,563.88,99.02,-356.71,-436.71,1050,1950,1495,1500
64.0,563.88,99.02,-356.71,-436.71,1050,1950,1498,1500
64.1,561.08,99.1,-354.78,-434.68,1050,1950,1493,1500
64.2,561.08,99.1,-354.78,-434.68,1050,1950,1497,1500
64.3,561.08,99.1,-354.78,-434.68,1050,1950,1497,1500
64.4,558.27,99.22,-352.83,-432.64,1050,1950,1489,1500
64.5,558.27,99.22,-352.83,-432.64,1050,1950,1496,1500
64.6,555.49,99.27,-350.89,-430.63,1050,1950,1493,1500
64.7,555.49,99.27,-350.89,-430.63,1050,1950,1495,1500
64.8,555.49,99.27,-350.89,-430.63,1050,1950,1495,1500
64.9,552.71,99.31,-348.96,-428.62,1050,1950,1493,1500
65.0,552.71,99.31,-348.96,-428.62,1050,1950,1495,1500
65.1,549.93,99.34,-347.04,-426.61,1050,1950,1494,1500
65.2,549.93,99.34,-347.04,-426.61,1050,1950,1495,1500
65.3,549.93,99.34,-347.04,-426.61,1050,1950,1495,1500
65.4,547.16,99.36,-345.11,-424.59,1050,1950,1494,1500
65.5,547.16,99.36,-345.11,-424.59,1050,1950,1495,1500
65.6,544.37,99.39,-343.18,-422.57,1050,1950,1493,1500
65.7,544.37,99.39,-343.18,-422.57,1050,1950,1495,1500
65.8,544.37,99.39,-343.18,-422.57,1050,1950,1495,1500
65.9,541.6,99.46,-341.25,-420.57,1050,1950,1491,1500
66.0,541.6,99.46,-341.25,-420.57,1050,1950,1494,1500
66.1,538.83,99.5,-339.32,-418.57,1050,1950,1492,1500
66.2,538.83,99.5,-339.32,-418.57,1050,1950,1494,1500
66.3,538.83,99.5,-339.32,-418.57,1050,1950,1494,1500
66.4,536.05,99.55,-337.4,-416.55,1050,1950,1491,1500
66.5,536.05,99.55,-337.4,-416.55,1050,1950,1493,1500
66.6,533.29,99.57,-335.48,-414.54,1050,1950,1492,1500
66.7,533.29,99.57,-335.48,-414.54,1050,1950,1493,1500
66.8,533.29,99.57,-335.48,-414.54,1050,1950,1493,1500
66.9,530.52,99.61,-333.57,-412.53,1050,1950,1491,1500
67.0,530.52,99.61,-333.57,-412.53,1050,1950,1493,1500
67.1,527.75,99.69,-331.65,-410.52,1050,1950,1487,1500
67.2,527.75,99.69,-331.65,-410.52,1050,1950,1492,1500
67.3,527.75,99.69,-331.65,-410.52,1050,1950,1492,1500
67.4,524.98,99.8,-329.74,-408.51,1050,1950,1485,1500
67.5,524.98,99.8,-329.74,-408.51,1050,1950,1490,1500
67.6,522.2,99.89,-327.81,-406.49,1050,1950,1484,1500
67.7,522.2,99.89,-327.81,-406.49,1050,1950,1489,1500
67.8,522.2,99.89,-327.81,-406.49,1050,1950,1489,1500
67.9,519.42,99.96,-325.89,-404.47,1050,1950,1484,1500
68.0,519.42,99.96,-325.89,-404.47,1050,1950,1488,1500
68.1,516.64,99.98,-323.96,-402.45,1050,1950,1487,1500
68.2,516.64,99.98,-323.96,-402.45,1050,1950,1488,1500
68.3,516.64,99.98,-323.96,-402.45,1050,1950,1488,1500
68.4,513.84,100.02,-322.03,-400.41,1050,1950,1485,1500
68.5,513.84,100.02,-322.03,-400.41,1050,1950,1487,1500
68.6,513.84,100.02,-322.03,-400.41,1050,1950,1487,1500
68.7,513.84,100.02,-322.03,-400.41,1050,1950,1487,1500
68.8,513.84,100.02,-322.03,-400.41,1050,1950,1487,1500
68.9,513.84,100.02,-322.03,-400.41,1050,1950,1487,1500
69.0,506.41,100.21,-316.88,-395.01,1050,1950,1474,1500
69.1,506.41,100.21,-316.88,-395.01,1050,1950,1484,1500
69.2,506.41,100.21,-316.88,-395.01,1050,1950,1484,1500
69.3,506.41,100.21,-316.88,-395.01,1050,1950,1484,1500
69.4,506.41,100.21,-316.88,-395.01,1050,1950,1484,1500
69.5,500.83,100.26,-313.02,-390.96,1050,1950,1481,1500
69.6,500.83,100.26,-313.02,-390.96,1050,1950,1483,1500
69.7,500.83,100.26,-313.02,-390.96,1050,1950,1483,1500
69.8,500.83,100.26,-313.02,-390.96,1050,1950,1483,1500
69.9,500.83,100.26,-313.02,-390.96,1050,1950,1483,1500
70.0,495.35,100.21,-309.22,-386.98,1050,1950,1486,1500
70.1,495.35,100.21,-309.22,-386.98,1050,1950,1484,1500
70.2,495.35,100.21,-309.22,-386.98,1050,1950,1484,1500
70.3,495.35,100.21,-309.22,-386.98,1050,1950,1483,1500
70.4,495.35,100.21,-309.22,-386.98,1050,1950,1483,1500
70.5,489.88,100.31,-305.43,-383.01,1050,1950,1477,1500
70.6,489.88,100.31,-305.43,-383.01,1050,1950,1482,1500
70.7,489.88,100.31,-305.43,-383.01,1050,1950,1482,1500
70.8,489.88,100.31,-305.43,-383.01,1050,1950,1482,1500
70.9,486.23,100.36,-302.9,-380.36,1050,1950,1478,1500
71.0,486.23,100.36,-302.9,-380.36,1050,1950,1481,1500
71.1,483.49,100.37,-301.0,-378.37,1050,1950,1480,1500
71.2,483.49,100.37,-301.0,-378.37,1050,1950,1481,1500
71.3,483.49,100.37,-301.0,-378.37,1050,1950,1480,1500
71.4,480.75,100.42,-299.09,-376.38,1050,1950,1477,1500
71.5,480.75,100.42,-299.09,-376.38,1050,1950,1479,1500
71.6,478.0,100.47,-297.19,-374.39,1050,1950,1476,1500
71.7,478.0,100.47,-297.19,-374.39,1050,1950,1479,1500
71.8,478.0,100.47,-297.19,-374.39,1050,1950,1479,1500
71.9,475.28,100.42,-295.3,-372.41,1050,1950,1482,1500
72.0,475.28,100.42,-295.3,-372.41,1050,1950,1479,1500
72.1,472.56,100.41,-293.4,-370.44,1050,1950,1479,1500
72.2,472.56,100.41,-293.4,-370.44,1050,1950,1479,1500
72.3,472.56,100.41,-293.4,-370.44,1050,1950,1479,1500
72.4,469.83,100.45,-291.51,-368.45,1050,1950,1477,1500
72.5,469.83,100.45,-291.51,-368.45,1050,1950,1478,1500
72.6,467.07,100.52,-289.6,-366.45,1050,1950,1473,1500
72.7,467.07,100.52,-289.6,-366.45,1050,1950,1477,1500
72.8,467.07,100.52,-289.6,-366.45,1050,1950,1477,1500
72.9,464.33,100.55,-287.71,-364.46,1050,1950,1475,1500
73.0,464.33,100.55,-287.71,-364.46,1050,1950,1476,1500
73.1,461.6,100.58,-285.81,-362.48,1050,1950,1475,1500
73.2,461.6,100.58,-285.81,-362.48,1050,1950,1476,1500
73.3,461.6,100.58,-285.81,-362.48,1050,1950,1475,1500
73.4,458.88,100.56,-283.92,-360.5,1050,1950,1477,1500
73.5,458.88,100.56,-283.92,-360.5,1050,1950,1476,1500
73.6,456.15,100.5,-282.03,-358.51,1050,1950,1479,1500
73.7,456.15,100.5,-282.03,-358.51,1050,1950,1476,1500
73.8,456.15,100.5,-282.03,-358.51,1050,1950,1476,1500
73.9,453.42,100.45,-280.14,-356.53,1050,1950,1479,1500
74.0,453.42,100.45,-280.14,-356.53,1050,1950,1477,1500
74.1,450.71,100.39,-278.25,-354.56,1050,1950,1481,1500
74.2,450.71,100.39,-278.25,-354.56,1050,1950,1477,1500
74.3,450.71,100.39,-278.25,-354.56,1050,1950,1477,1500
74.4,447.98,100.34,-276.36,-352.58,1050,1950,1480,1500
74.5,447.98,100.34,-276.36,-352.58,1050,1950,1478,1500
74.6,445.25,100.26,-274.47,-350.59,1050,1950,1483,1500
74.7,445.25,100.26,-274.47,-350.59,1050,1950,1479,1500
74.8,442.53,100.28,-272.59,-348.61,1050,1950,1478,1500
74.9,442.53,100.28,-272.59,-348.61,1050,1950,1479,1500
75.0,442.53,100.28,-272.59,-348.61,1050,1950,1479,1500
75.1,439.82,100.31,-270.71,-346.63,1050,1950,1476,1500
75.2,439.82,100.31,-270.71,-346.63,1050,1950,1478,1500
75.3,437.1,100.35,-268.83,-344.66,1050,1950,1475,1500
75.4,437.1,100.35,-268.83,-344.66,1050,1950,1477,1500
75.5,437.1,100.35,-268.83,-344.66,1050,1950,1477,1500
75.6,434.38,100.39,-266.94,-342.68,1050,1950,1475,1500
75.7,434.38,100.39,-266.94,-342.68,1050,1950,1476,1500
75.8,431.66,100.39,-265.05,-340.71,1050,1950,1476,1500
75.9,431.66,100.39,-265.05,-340.71,1050,1950,1476,1500
76.0,431.66,100.39,-265.05,-340.71,1050,1950,1476,1500
76.1,428.95,100.33,-263.17,-338.74,1050,1950,1480,1500
76.2,428.95,100.33,-263.17,-338.74,1050,1950,1477,1500
76.3,426.25,100.24,-261.29,-336.77,1050,1950,1482,1500
76.4,426.25,100.24,-261.29,-336.77,1050,1950,1478,1500
76.5,426.25,100.24,-261.29,-336.77,1050,1950,1478,1500
76.6,423.53,100.14,-259.4,-334.8,1050,1950,1485,1500
76.7,423.53,100.14,-259.4,-334.8,1050,1950,1480,1500
76.8,420.8,100.08,-257.49,-332.83,1050,1950,1483,1500
76.9,420.8,100.08,-257.49,-332.83,1050,1950,1480,1500
77.0,420.8,100.08,-257.49,-332.83,1050,1950,1480,1500
77.1,418.08,100.1,-255.6,-330.85,1050,1950,1479,1500
77.2,418.08,100.1,-255.6,-330.85,1050,1950,1480,1500
77.3,415.36,100.11,-253.7,-328.88,1050,1950,1479,1500
77.4,415.36,100.11,-253.7,-328.88,1050,1950,1480,1500
77.5,415.36,100.11,-253.7,-328.88,1050,1950,1480,1500
77.6,412.63,100.07,-251.8,-326.89,1050,1950,1482,1500
77.7,412.63,100.07,-251.8,-326.89,1050,1950,1480,1500
77.8,409.9,100.04,-249.91,-324.9,1050,1950,1482,1500
77.9,409.9,100.04,-249.91,-324.9,1050,1950,1481,1500
78.0,409.9,100.04,-249.91,-324.9,1050,1950,1481,1500
78.1,407.16,100.03,-248.01,-322.91,1050,1950,1482,1500
78.2,407.16,100.03,-248.01,-322.91,1050,1950,1481,1500
78.3,404.43,100.0,-246.12,-320.92,1050,1950,1482,1500
78.4,404.43,100.0,-246.12,-320.92,1050,1950,1481,1500
78.5,404.43,100.0,-246.12,-320.92,1050,1950,1481,1500
78.6,401.68,99.97,-244.21,-318.91,1050,1950,1483,1500
78.7,401.68,99.97,-244.21,-318.91,1050,1950,1482,1500
78.8,398.91,99.95,-242.29,-316.9,1050,1950,1484,1500
78.9,398.91,99.95,-242.29,-316.9,1050,1950,1482,1500
79.0,398.91,99.95,-242.29,-316.9,1050,1950,1482,1500
79.1,396.15,99.93,-240.37,-314.89,1050,1950,1483,1500
79.2,396.15,99.93,-240.37,-314.89,1050,1950,1483,1500
79.3,393.4,99.97,-238.47,-312.88,1050,1950,1480,1500
79.4,393.4,99.97,-238.47,-312.88,1050,1950,1482,1500
79.5,393.4,99.97,-238.47,-312.88,1050,1950,1482,1500
79.6,390.63,100.0,-236.55,-310.87,1050,1950,1480,1500
79.7,390.63,100.0,-236.55,-310.87,1050,1950,1482,1500
79.8,387.87,100.02,-234.64,-308.85,1050,1950,1480,1500
79.9,387.87,100.02,-234.64,-308.85,1050,1950,1481,1500
80.0,387.87,100.02,-234.64,-308.85,1050,1950,1481,1500
80.1,385.12,100.04,-232.72,-306.85,1050,1950,1480,1500
80.2,385.12,100.04,-232.72,-306.85,1050,1950,1481,1500
80.3,382.38,100.05,-230.82,-304.85,1050,1950,1480,1500
80.4,382.38,100.05,-230.82,-304.85,1050,1950,1481,1500
80.5,382.38,100.05,-230.82,-304.85,1050,1950,1481,1500
80.6,379.64,100.06,-228.92,-302.86,1050,1950,1480,1500
80.7,379.64,100.06,-228.92,-302.86,1050,1950,1481,1500
80.8,376.88,100.05,-226.99,-300.85,1050,1950,1481,1500
80.9,376.88,100.05,-226.99,-300.85,1050,1950,1481,1500
81.0,376.88,100.05,-226.99,-300.85,1050,1950,1481,1500
81.1,374.14,100.09,-225.09,-298.86,1050,1950,1478,1500
81.2,374.14,100.09,-225.09,-298.86,1050,1950,1480,1500
81.3,371.41,100.15,-223.2,-296.87,1050,1950,1476,1500
81.4,371.41,100.15,-223.2,-296.87,1050,1950,1479,1500
81.5,371.41,100.15,-223.2,-296.87,1050,1950,1479,1500
81.6,368.69,100.23,-221.3,-294.88,1050,1950,1474,1500
81.7,368.69,100.23,-221.3,-294.88,1050,1950,1478,1500
81.8,365.96,100.28,-219.41,-292.9,1050,1950,1474,1500
81.9,365.96,100.28,-219.41,-292.9,1050,1950,1477,1500
82.0,365.96,100.28,-219.41,-292.9,1050,1950,1477,1500
82.1,363.25,100.3,-217.53,-290.91,1050,1950,1476,1500
82.2,363.25,100.3,-217.53,-290.91,1050,1950,1476,1500
82.3,360.54,100.19,-215.65,-288.93,1050,1950,1483,1500
82.4,360.54,100.19,-215.65,-288.93,1050,1950,1478,1500
82.5,360.54,100.19,-215.65,-288.93,1050,1950,1478,1500
82.6,357.83,100.04,-213.77,-286.96,1050,1950,1488,1500
82.7,357.83,100.04,-213.77,-286.96,1050,1950,1480,1500
82.8,355.09,99.88,-211.87,-284.96,1050,1950,1491,1500
82.9,355.09,99.88,-211.87,-284.96,1050,1950,1483,1500
83.0,355.09,99.88,-211.87,-284.96,1050,1950,1483,1500
83.1,352.35,99.71,-209.97,-282.96,1050,1950,1494,1500
83.2,352.35,99.71,-209.97,-282.96,1050,1950,1485,1500
83.3,349.62,99.53,-208.08,-280.96,1050,1950,1497,1500
83.4,349.62,99.53,-208.08,-280.96,1050,1950,1488,1500
83.5,349.62,99.53,-208.08,-280.96,1050,1950,1488,1500
83.6,346.88,99.41,-206.17,-278.96,1050,1950,1497,1500
83.8,346.88,99.41,-206.17,-278.96,1050,1950,1490,1500
83.9,344.15,99.3,-204.28,-276.97,1050,1950,1497,1500
84.0,344.15,99.3,-204.28,-276.97,1050,1950,1492,1500
84.1,344.15,99.3,-204.28,-276.97,1050,1950,1492,1500
84.2,341.41,99.26,-202.37,-274.97,1050,1950,1495,1500
84.3,341.41,99.26,-202.37,-274.97,1050,1950,1493,1500
84.4,338.66,99.32,-200.45,-272.97,1050,1950,1490,1500
84.5,338.66,99.32,-200.45,-272.97,1050,1950,1493,1500
84.6,338.66,99.32,-200.45,-272.97,1050,1950,1493,1500
84.7,335.93,99.38,-198.55,-270.98,1050,1950,1489,1500
84.8,335.93,99.38,-198.55,-270.98,1050,1950,1492,1500
84.9,333.18,99.44,-196.63,-268.97,1050,1950,1488,1500
85.0,333.18,99.44,-196.63,-268.97,1050,1950,1491,1500
85.1,333.18,99.44,-196.63,-268.97,1050,1950,1492,1500
85.2,330.4,99.58,-194.7,-266.94,1050,1950,1483,1500
85.3,330.4,99.58,-194.7,-266.94,1050,1950,1490,1500
85.4,327.66,99.72,-192.78,-264.95,1050,1950,1481,1500
85.5,327.66,99.72,-192.78,-264.95,1050,1950,1488,1500
85.6,327.66,99.72,-192.78,-264.95,1050,1950,1488,1500
85.7,324.91,99.87,-190.87,-262.94,1050,1950,1478,1500
85.8,324.91,99.87,-190.87,-262.94,1050,1950,1486,1500
85.9,322.17,99.95,-188.95,-260.94,1050,1950,1480,1500
86.0,322.17,99.95,-188.95,-260.94,1050,1950,1484,1500
86.1,322.17,99.95,-188.95,-260.94,1050,1950,1484,1500
86.2,319.42,99.98,-187.04,-258.93,1050,1950,1482,1500
86.3,319.42,99.98,-187.04,-258.93,1050,1950,1484,1500
86.4,316.7,99.93,-185.14,-256.95,1050,1950,1487,1500
86.5,316.7,99.93,-185.14,-256.95,1050,1950,1485,1500
86.6,316.7,99.93,-185.14,-256.95,1050,1950,1485,1500
86.7,313.97,99.91,-183.23,-254.96,1050,1950,1486,1500
86.8,313.97,99.91,-183.23,-254.96,1050,1950,1485,1500
86.9,311.24,99.9,-181.33,-252.97,1050,1950,1486,1500
87.0,311.24,99.9,-181.33,-252.97,1050,1950,1485,1500
87.1,311.24,99.9,-181.33,-252.97,1050,1950,1485,1500
87.2,308.49,99.87,-179.41,-250.95,1050,1950,1487,1500
87.3,308.49,99.87,-179.41,-250.95,1050,1950,1486,1500
87.4,305.75,99.81,-177.51,-248.95,1050,1950,1490,1500
87.5,305.75,99.81,-177.51,-248.95,1050,1950,1487,1500
87.6,305.75,99.81,-177.51,-248.95,1050,1950,1487,1500
87.7,303.02,99.67,-175.61,-246.95,1050,1950,1496,1500
87.8,303.02,99.67,-175.61,-246.95,1050,1950,1489,1500
87.9,300.26,99.57,-173.68,-244.93,1050,1950,1496,1500
88.0,300.26,99.57,-173.68,-244.93,1050,1950,1491,1500
88.1,300.26,99.57,-173.68,-244.93,1050,1950,1491,1500
88.2,297.51,99.52,-171.77,-242.91,1050,1950,1494,1500
88.3,297.51,99.52,-171.77,-242.91,1050,1950,1492,1500
88.4,294.76,99.45,-169.85,-240.9,1050,1950,1496,1500
88.5,294.76,99.45,-169.85,-240.9,1050,1950,1493,1500
88.6,294.76,99.45,-169.85,-240.9,1050,1950,1493,1500
88.7,292.0,99.38,-167.94,-238.88,1050,1950,1498,1500
88.8,292.0,99.38,-167.94,-238.88,1050,1950,1494,1500
88.9,289.25,99.31,-166.01,-236.87,1050,1950,1499,1500
89.8,289.25,99.31,-166.01,-236.87,1050,1950,1496,1500
89.9,289.25,99.31,-166.01,-236.87,1050,1950,1496,1500
90.0,286.47,99.27,-164.06,-234.83,1050,1950,1499,1500
90.1,286.47,99.27,-164.06,-234.83,1050,1950,1497,1500
90.2,283.68,99.28,-162.11,-232.79,1050,1950,1496,1500
90.3,283.68,99.28,-162.11,-232.79,1050,1950,1497,1500
90.4,283.68,99.28,-162.11,-232.79,1050,1950,1497,1500
90.5,280.91,99.29,-160.18,-230.76,1050,1950,1496,1500
90.6,280.91,99.29,-160.18,-230.76,1050,1950,1497,1500
90.7,278.12,99.35,-158.23,-228.72,1050,1950,1494,1500
90.8,278.12,99.35,-158.23,-228.72,1050,1950,1497,1500
90.9,278.12,99.35,-158.23,-228.72,1050,1950,1497,1500
91.0,275.34,99.43,-156.28,-226.69,1050,1950,1492,1500
91.1,275.34,99.43,-156.28,-226.69,1050,1950,1496,1500
91.2,272.57,99.48,-154.34,-224.66,1050,1950,1493,1500
91.3,272.57,99.48,-154.34,-224.66,1050,1950,1495,1500
91.4,269.81,99.52,-152.41,-222.64,1050,1950,1492,1500
91.5,269.81,99.52,-152.41,-222.64,1050,1950,1495,1500
91.6,269.81,99.52,-152.41,-222.64,1050,1950,1495,1500
91.7,267.06,99.62,-150.48,-220.63,1050,1950,1489,1500
91.8,267.06,99.62,-150.48,-220.63,1050,1950,1493,1500
91.9,267.06,99.62,-150.48,-220.63,1050,1950,1494,1500
92.0,264.31,99.74,-148.54,-218.61,1050,1950,1486,1500
92.1,264.31,99.74,-148.54,-218.61,1050,1950,1492,1500
92.2,261.55,99.88,-146.61,-216.59,1050,1950,1483,1500
92.3,261.55,99.88,-146.61,-216.59,1050,1950,1490,1500
92.4,258.81,100.02,-144.68,-214.59,1050,1950,1481,1500
92.5,258.81,100.02,-144.68,-214.59,1050,1950,1488,1500
92.6,258.81,100.02,-144.68,-214.59,1050,1950,1488,1500
92.7,256.07,100.19,-142.76,-212.58,1050,1950,1477,1500
92.8,256.07,100.19,-142.76,-212.58,1050,1950,1485,1500
92.9,253.32,100.28,-140.82,-210.57,1050,1950,1479,1500
93.0,253.32,100.28,-140.82,-210.57,1050,1950,1484,1500
93.1,253.32,100.28,-140.82,-210.57,1050,1950,1484,1500
93.2,250.58,100.4,-138.88,-208.58,1050,1950,1476,1500
93.3,250.58,100.4,-138.88,-208.58,1050,1950,1482,1500
93.4,247.86,100.46,-136.97,-206.58,1050,1950,1478,1500
93.5,247.86,100.46,-136.97,-206.58,1050,1950,1481,1500
93.6,247.86,100.46,-136.97,-206.58,1050,1950,1480,1500
93.7,245.15,100.44,-135.05,-204.6,1050,1950,1481,1500
93.8,245.15,100.44,-135.05,-204.6,1050,1950,1481,1500
93.9,242.44,100.45,-133.14,-202.61,1050,1950,1480,1500
94.0,242.44,100.45,-133.14,-202.61,1050,1950,1480,1500
94.1,242.44,100.45,-133.14,-202.61,1050,1950,1480,1500
94.2,239.71,100.53,-131.22,-200.6,1050,1950,1475,1500
94.3,239.71,100.53,-131.22,-200.6,1050,1950,1479,1500
94.4,237.01,100.53,-129.32,-198.62,1050,1950,1479,1500
94.5,237.01,100.53,-129.32,-198.62,1050,1950,1478,1500
94.6,237.01,100.53,-129.32,-198.62,1050,1950,1478,1500
94.7,234.3,100.42,-127.42,-196.62,1050,1950,1485,1500
94.8,234.3,100.42,-127.42,-196.62,1050,1950,1480,1500
94.9,231.59,100.23,-125.51,-194.63,1050,1950,1492,1500
95.0,231.59,100.23,-125.51,-194.63,1050,1950,1483,1500
95.1,231.59,100.23,-125.51,-194.63,1050,1950,1483,1500
95.2,228.89,99.98,-123.61,-192.64,1050,1950,1499,1500
95.3,228.89,99.98,-123.61,-192.64,1050,1950,1486,1500
95.4,226.18,99.77,-121.71,-190.65,1050,1950,1500,1500
95.5,226.18,99.77,-121.71,-190.65,1050,1950,1490,1500
95.6,226.18,99.77,-121.71,-190.65,1050,1950,1490,1500
95.7,223.48,99.64,-119.8,-188.66,1050,1950,1498,1500
95.8,223.48,99.64,-119.8,-188.66,1050,1950,1492,1500
95.9,220.79,99.49,-117.91,-186.66,1050,1950,1502,1500
96.0,220.79,99.49,-117.91,-186.66,1050,1950,1494,1500
96.1,220.79,99.49,-117.91,-186.66,1050,1950,1494,1500
96.2,218.07,99.42,-115.99,-184.66,1050,1950,1499,1500
96.3,218.07,99.42,-115.99,-184.66,1050,1950,1496,1500
96.4,215.36,99.42,-114.08,-182.67,1050,1950,1495,1500
96.5,215.36,99.42,-114.08,-182.67,1050,1950,1496,1500
96.6,215.36,99.42,-114.08,-182.67,1050,1950,1496,1500
96.7,212.65,99.54,-112.17,-180.67,1050,1950,1489,1500
96.8,212.65,99.54,-112.17,-180.67,1050,1950,1494,1500
96.9,209.94,99.72,-110.24,-178.67,1050,1950,1482,1500
97.0,209.94,99.72,-110.24,-178.67,1050,1950,1492,1500
97.1,209.94,99.72,-110.24,-178.67,1050,1950,1492,1500
97.2,207.25,99.92,-108.33,-176.69,1050,1950,1479,1500
97.3,207.25,99.92,-108.33,-176.69,1050,1950,1489,1500
97.4,204.56,100.1,-106.41,-174.7,1050,1950,1477,1500
97.5,204.56,100.1,-106.41,-174.7,1050,1950,1486,1500
97.6,204.56,100.1,-106.41,-174.7,1050,1950,1486,1500
97.7,201.86,100.23,-104.48,-172.72,1050,1950,1477,1500
97.8,201.86,100.23,-104.48,-172.72,1050,1950,1484,1500
97.9,199.19,100.4,-102.58,-170.74,1050,1950,1473,1500
98.0,199.19,100.4,-102.58,-170.74,1050,1950,1481,1500
98.1,199.19,100.4,-102.58,-170.74,1050,1950,1481,1500
98.2,196.5,100.55,-100.67,-168.76,1050,1950,1471,1500
98.3,196.5,100.55,-100.67,-168.76,1050,1950,1479,1500
98.4,193.8,100.71,-98.74,-166.76,1050,1950,1469,1500
98.5,193.8,100.71,-98.74,-166.76,1050,1950,1476,1500
98.6,193.8,100.71,-98.74,-166.76,1050,1950,1476,1500
98.7,191.12,100.89,-96.83,-164.77,1050,1950,1464,1500
98.8,191.12,100.89,-96.83,-164.77,1050,1950,1473,1500
98.9,188.44,101.03,-94.91,-162.79,1050,1950,1463,1500
99.0,188.44,101.03,-94.91,-162.79,1050,1950,1470,1500
99.1,188.44,101.03,-94.91,-162.79,1050,1950,1470,1500
99.2,185.76,101.17,-93.01,-160.8,1050,1950,1460,1500
99.3,185.76,101.17,-93.01,-160.8,1050,1950,1467,1500
99.4,183.08,101.34,-91.09,-158.8,1050,1950,1457,1500
99.5,183.08,101.34,-91.09,-158.8,1050,1950,1465,1500
99.6,183.08,101.34,-91.09,-158.8,1050,1950,1464,1500
99.7,180.41,101.48,-89.19,-156.82,1050,1950,1455,1500
99.8,180.41,101.48,-89.19,-156.82,1050,1950,1462,1500
99.9,177.75,101.62,-87.3,-154.84,1050,1950,1452,1500
100.0,177.75,101.62,-87.3,-154.84,1050,1950,1459,1500
100.1,177.75,101.62,-87.3,-154.84,1050,1950,1459,1500
100.2,175.11,101.68,-85.4,-152.87,1050,1950,1454,1500
100.3,175.11,101.68,-85.4,-152.87,1050,1950,1457,1500
100.4,172.46,101.63,-83.51,-150.89,1050,1950,1460,1500
100.5,172.46,101.63,-83.51,-150.89,1050,1950,1457,1500
100.6,172.46,101.63,-83.51,-150.89,1050,1950,1457,1500
100.7,169.84,101.54,-81.64,-148.93,1050,1950,1462,1500
100.8,169.84,101.54,-81.64,-148.93,1050,1950,1457,1500
100.9,167.24,101.42,-79.77,-146.99,1050,1950,1465,1500
101.0,167.24,101.42,-79.77,-146.99,1050,1950,1459,1500
101.1,167.24,101.42,-79.77,-146.99,1050,1950,1458,1500
101.2,164.64,101.2,-77.91,-145.04,1050,1950,1472,1500
101.3,164.64,101.2,-77.91,-145.04,1050,1950,1461,1500
101.4,162.04,100.95,-76.05,-143.09,1050,1950,1477,1500
101.5,162.04,100.95,-76.05,-143.09,1050,1950,1464,1500
101.6,162.04,100.95,-76.05,-143.09,1050,1950,1464,1500
101.7,159.45,100.76,-74.19,-141.13,1050,1950,1477,1500
101.8,159.45,100.76,-74.19,-141.13,1050,1950,1467,1500
101.9,156.85,100.59,-72.32,-139.18,1050,1950,1478,1500
102.0,156.85,100.59,-72.32,-139.18,1050,1950,1469,1500
102.1,156.85,100.59,-72.32,-139.18,1050,1950,1469,1500
102.2,154.27,100.52,-70.47,-137.23,1050,1950,1474,1500
102.3,154.27,100.52,-70.47,-137.23,1050,1950,1470,1500
102.4,151.67,100.53,-68.6,-135.28,1050,1950,1469,1500
102.5,151.67,100.53,-68.6,-135.28,1050,1950,1470,1500
102.6,151.67,100.53,-68.6,-135.28,1050,1950,1470,1500
102.7,149.07,100.55,-66.71,-133.31,1050,1950,1468,1500
102.8,149.07,100.55,-66.71,-133.31,1050,1950,1469,1500
102.9,146.5,100.55,-64.84,-131.36,1050,1950,1469,1500
103.0,146.5,100.55,-64.84,-131.36,1050,1950,1469,1500
103.1,146.5,100.55,-64.84,-131.36,1050,1950,1469,1500
103.2,143.92,100.55,-62.97,-129.41,1050,1950,1469,1500
103.3,143.92,100.55,-62.97,-129.41,1050,1950,1468,1500
103.4,141.34,100.56,-61.11,-127.44,1050,1950,1467,1500
103.5,141.34,100.56,-61.11,-127.44,1050,1950,1468,1500
103.6,141.34,100.56,-61.11,-127.44,1050,1950,1468,1500
103.7,138.76,100.62,-59.24,-125.48,1050,1950,1464,1500
103.8,138.76,100.62,-59.24,-125.48,1050,1950,1467,1500
103.9,136.2,100.72,-57.39,-123.52,1050,1950,1460,1500
104.0,136.2,100.72,-57.39,-123.52,1050,1950,1465,1500
104.1,136.2,100.72,-57.39,-123.52,1050,1950,1465,1500
104.2,133.65,100.83,-55.53,-121.57,1050,1950,1458,1500
104.3,133.65,100.83,-55.53,-121.57,1050,1950,1463,1500
104.4,131.1,100.92,-53.67,-119.62,1050,1950,1457,1500
104.5,131.1,100.92,-53.67,-119.62,1050,1950,1461,1500
104.6,131.1,100.92,-53.67,-119.62,1050,1950,1461,1500
104.7,128.55,101.03,-51.79,-117.65,1050,1950,1453,1500
104.8,128.55,101.03,-51.79,-117.65,1050,1950,1459,1500
104.9,126.02,101.06,-49.93,-115.71,1050,1950,1457,1500
105.0,126.02,101.06,-49.93,-115.71,1050,1950,1458,1500
105.1,126.02,101.06,-49.93,-115.71,1050,1950,1458,1500
105.2,123.52,101.02,-48.08,-113.77,1050,1950,1461,1500
105.3,123.52,101.02,-48.08,-113.77,1050,1950,1458,1500
105.4,121.01,100.94,-46.23,-111.83,1050,1950,1463,1500
105.5,121.01,100.94,-46.23,-111.83,1050,1950,1459,1500
105.6,121.01,100.94,-46.23,-111.83,1050,1950,1459,1500
105.7,118.51,100.86,-44.38,-109.89,1050,1950,1463,1500
105.8,118.51,100.86,-44.38,-109.89,1050,1950,1459,1500
105.9,116.03,100.79,-42.52,-107.95,1050,1950,1464,1500
106.0,116.03,100.79,-42.52,-107.95,1050,1950,1460,1500
106.1,116.03,100.79,-42.52,-107.95,1050,1950,1460,1500
106.2,113.57,100.63,-40.69,-106.03,1050,1950,1470,1500
106.3,113.57,100.63,-40.69,-106.03,1050,1950,1462,1500
106.4,111.1,100.43,-38.84,-104.09,1050,1950,1475,1500
106.5,111.1,100.43,-38.84,-104.09,1050,1950,1465,1500
106.6,111.1,100.43,-38.84,-104.09,1050,1950,1465,1500
106.7,111.1,100.43,-38.84,-104.09,1050,1950,1465,1500
106.8,107.0,100.17,-35.73,-100.86,1050,1864,1481,1500
106.9,107.0,100.17,-35.73,-100.86,1050,1950,1469,1500
107.0,107.0,100.17,-35.73,-100.86,1050,1950,1469,1500
107.1,107.0,100.17,-35.73,-100.86,1050,1950,1469,1500
107.2,107.0,100.17,-35.73,-100.86,1050,1950,1468,1500
107.3,102.16,100.0,-32.04,-97.0,1050,1691,1480,1500
107.4,102.16,100.0,-32.04,-97.0,1050,1950,1471,1500
107.5,102.16,100.0,-32.04,-97.0,1050,1950,1471,1500
107.6,102.16,100.0,-32.04,-97.0,1050,1950,1471,1500
107.7,102.16,100.0,-33.73,-96.43,1050,1950,1471,1500
107.8,97.27,99.91,-29.95,-92.54,1050,1644,1477,1500
107.9,97.27,99.91,-26.7,-93.53,1050,1700,1473,1500
108.0,97.27,99.91,-26.7,-93.53,1050,1950,1473,1500
108.1,97.27,99.91,-26.7,-93.53,1050,1950,1473,1500
108.2,97.27,99.91,-29.95,-92.54,1050,1950,1473,1500
108.3,92.45,99.83,-26.31,-88.63,1050,1616,1478,1500
108.4,92.45,99.83,-23.2,-89.49,1050,1676,1474,1500
108.5,92.45,99.83,-23.2,-89.49,1050,1950,1474,1500
108.6,92.45,99.83,-26.31,-88.63,1050,1950,1474,1500
108.7,92.45,99.83,-26.31,-88.63,1050,1950,1474,1500
108.8,87.67,99.69,-22.82,-84.64,1050,1594,1483,1500
108.9,87.67,99.69,-19.85,-85.39,1050,1654,1476,1500
109.0,87.67,99.69,-19.85,-85.39,1050,1950,1476,1500
109.1,87.67,99.69,-22.82,-84.64,1050,1950,1476,1500
109.2,87.67,99.69,-22.82,-84.64,1050,1950,1476,1500
109.3,82.91,99.46,-19.47,-80.6,1050,1570,1491,1500
109.4,82.91,99.46,-16.64,-81.23,1050,1634,1480,1500
109.5,82.91,99.46,-16.64,-81.23,1050,1950,1480,1500
109.6,82.91,99.46,-18.06,-80.92,1050,1950,1480,1500
109.7,82.91,99.46,-18.06,-80.92,1050,1950,1480,1500
109.8,78.18,99.28,-14.87,-76.75,1050,1536,1492,1500
109.9,78.18,99.28,-13.53,-77.0,1050,1884,1483,1500
110.0,78.18,99.28,-13.53,-77.0,1050,1950,1483,1500
110.1,78.18,99.28,-16.21,-76.48,1050,1950,1484,1500
110.2,78.18,99.28,-16.21,-76.48,1050,1950,1484,1500
110.3,73.53,99.04,-13.06,-72.36,1050,1517,1500,1500
110.4,73.53,99.04,-10.53,-72.77,1050,1601,1488,1500
110.5,73.53,99.04,-10.53,-72.77,1050,1950,1488,1500
110.6,73.53,99.04,-13.06,-72.36,1050,1950,1488,1500
110.7,73.53,99.04,-13.06,-72.36,1050,1950,1488,1500
110.8,68.93,98.81,-9.99,-68.21,1050,1484,1504,1500
110.9,68.93,98.81,-7.6,-68.51,1050,1586,1492,1500
111.0,68.93,98.81,-7.6,-68.51,1050,1950,1493,1500
111.1,68.93,98.81,-9.99,-68.21,1050,1950,1493,1500
111.2,68.93,98.81,-9.99,-68.21,1050,1950,1493,1500
